name,latitude,longitude,location_id,num_reviews,ranking_position,ranking_denominator,ranking_category,rating,address,cuisine,establishment_types,price,Bar,Italian,Japanese,American,Steakhouse,Cafe,Indian,Asian,Healthy,German,Central European,Mediterranean,European,Vegan Options,Gluten Free Options,Seafood,min price,max price,rating_category
Maindiner,50.098976,8.693056,8385162,939,1,2194,A,5.0,"Hainer Weg 29, 60599 Frankfurt, Hesse Germany",Steakhouse,Restaurants,$9 - $48,N/A,N/A,N/A,N/A,Available,N/A,N/A,N/A,Available,N/A,Available,N/A,N/A,Available,Available,N/A,$9 , $48,A
Elia,50.10456,8.641389,5993196,432,2,2194,A,4.5,"Frankenallee 111, 60326 Frankfurt, Hesse Germany",Seafood,Restaurants,$23 - $50,N/A,N/A,N/A,N/A,N/A,N/A,N/A,N/A,N/A,N/A,N/A,Available,Available,Available,Available,Available,$23 , $50,B
Trattoria i Siciliani,50.104904,8.684424,1190751,2054,3,2194,A,4.5,"Walter-Kolb-Str. 17, 60594 Frankfurt, Hesse Germany",Pizza,Restaurants,$7 - $26,N/A,Available,N/A,N/A,N/A,N/A,N/A,N/A,N/A,N/A,N/A,Available,N/A,Available,N/A,Available,$7 , $26,B
AROMA,50.12387,8.681382,1342805,270,4,2194,A,4.5,"Oeder Weg 80a, 60318 Frankfurt, Hesse Germany",Lebanese,Restaurants,$1 - $111,N/A,N/A,N/A,N/A,N/A,N/A,N/A,N/A,N/A,N/A,N/A,Available,N/A,Available,N/A,N/A,$1 , $111,B
Restaurant Medici,50.111725,8.679165,1118966,1145,5,2194,A,4.5,"Weissadlergasse 2, 60311 Frankfurt, Hesse Germany",Mediterranean,Restaurants,,N/A,N/A,N/A,N/A,N/A,N/A,N/A,N/A,Available,N/A,Available,Available,Available,Available,N/A,N/A,0,0,B
The Legacy Bar & Grill,50.10551,8.666444,12231570,565,6,2194,A,4.5,"Wiesenhuettenplatz 28-38 Bahnhofsviertel, 60329 Frankfurt, Hesse Germany",Steakhouse,Restaurants,$15 - $39,N/A,N/A,N/A,N/A,Available,N/A,N/A,N/A,N/A,N/A,N/A,N/A,Available,Available,Available,N/A,$15 , $39,B
Waxy's Irish Bar,50.115845,8.677024,2349148,273,7,2194,A,4.5,"Taubenstr. 11, 60313 Frankfurt, Hesse Germany",Irish,Restaurants,$5 - $15,Available,N/A,N/A,N/A,N/A,N/A,N/A,N/A,N/A,N/A,N/A,N/A,N/A,N/A,Available,N/A,$5 , $15,B
Ristorante Punto e Pasta 1998,50.10792,8.660624,4167027,420,8,2194,A,4.5,"Ottostrasse 4, 60329 Frankfurt, Hesse Germany",Italian,Restaurants,$8 - $28,N/A,Available,N/A,N/A,N/A,N/A,N/A,N/A,N/A,N/A,N/A,Available,Available,Available,Available,N/A,$8 , $28,B
MAINKAI CAFE,50.109398,8.685024,1726601,395,9,2194,A,4.5,"Mainkai 15, 60311 Frankfurt, Hesse Germany",International,Restaurants,$4 - $15,N/A,N/A,N/A,N/A,N/A,Available,N/A,N/A,N/A,N/A,Available,N/A,Available,Available,Available,N/A,$4 , $15,B
Bidlabu – Bistro und Bar,50.114197,8.674303,4050427,123,10,2194,A,4.5,"Kleine Bockenheimer Str. 14, 60313 Frankfurt, Hesse Germany",European,Restaurants,,N/A,N/A,N/A,N/A,N/A,N/A,N/A,N/A,N/A,N/A,Available,N/A,Available,Available,Available,N/A,0,0,B
Pizzeria Sarita,50.143753,8.726407,14119467,183,11,2194,B,4.5,"Wilhelmshoeher Str. 132, 60389 Frankfurt, Hesse Germany",Italian,Restaurants,$5 - $10,N/A,Available,N/A,N/A,N/A,N/A,N/A,N/A,N/A,N/A,N/A,Available,Available,N/A,N/A,N/A,$5 , $10,B
African Queen,50.117294,8.645855,1928955,445,12,2194,B,4.5,"Schloss strasse 113 In der Nähe Messe, 60486 Frankfurt, Hesse Germany",African,Restaurants,,N/A,N/A,N/A,N/A,N/A,N/A,N/A,N/A,N/A,N/A,N/A,N/A,N/A,Available,Available,N/A,0,0,B
Im Herzen Afrikas,50.10754,8.671546,807247,880,13,2194,B,4.5,"Gutleutstr. 13, 60329 Frankfurt, Hesse Germany",African,Restaurants,$22,N/A,N/A,N/A,N/A,N/A,N/A,N/A,N/A,Available,N/A,N/A,N/A,N/A,Available,Available,N/A,$22,0,B
Ariston,50.11545,8.689194,2520807,1424,14,2194,B,4.5,"Heiligkreuzgasse 29, 60313 Frankfurt, Hesse Germany",Mediterranean,Restaurants,$12 - $26,N/A,N/A,N/A,N/A,N/A,N/A,N/A,N/A,N/A,N/A,N/A,Available,Available,Available,Available,N/A,$12 , $26,B
Adabina,50.113304,8.692222,11870652,191,15,2194,B,4.5,"Allerheiligenstr. 3, 60313 Frankfurt, Hesse Germany",African,Restaurants,$10 - $35,N/A,N/A,N/A,N/A,N/A,N/A,N/A,N/A,N/A,N/A,N/A,N/A,N/A,Available,Available,N/A,$10 , $35,B
Iwase,50.116943,8.686371,783828,446,16,2194,B,4.5,"Vilbeler Str. 31, 60313 Frankfurt, Hesse Germany",Japanese,Restaurants,,N/A,N/A,Available,N/A,N/A,N/A,N/A,Available,N/A,N/A,N/A,N/A,N/A,Available,Available,Available,0,0,B
Pizzeria 7 Bello,50.108135,8.660054,1340204,890,17,2194,B,4.5,"Niddastr. 82, 60329 Frankfurt, Hesse Germany",Italian,Restaurants,,N/A,Available,N/A,N/A,N/A,N/A,N/A,N/A,N/A,N/A,N/A,Available,Available,Available,N/A,N/A,0,0,B
Ebbelwoi Unser,50.104607,8.68852,8593564,950,18,2194,B,4.5,"Abtsgaesschen 8 Eingang Kleine Brückenstraße 15, 60594 Frankfurt, Hesse Germany",German,Restaurants,$3 - $18,N/A,N/A,N/A,N/A,N/A,N/A,N/A,N/A,N/A,Available,N/A,N/A,N/A,N/A,N/A,N/A,$3 , $18,B
Thai & Turf - Steakhouse,50.089073,8.67092,6847690,1772,19,2194,B,4.5,"Morfelder Landstrasse 235, 60598 Frankfurt, Hesse Germany",Steakhouse,Restaurants,$60 - $150,N/A,N/A,N/A,N/A,Available,N/A,N/A,N/A,N/A,N/A,N/A,N/A,N/A,Available,Available,N/A,$60 , $150,B
Bitter & Zart,50.111507,8.684039,2691406,275,20,2194,B,4.5,"Braubachstr. 14, 60311 Frankfurt, Hesse Germany",Cafe,Coffee & Tea,,N/A,N/A,N/A,N/A,N/A,Available,N/A,N/A,N/A,N/A,N/A,N/A,Available,Available,N/A,N/A,0,0,B
Restaurant Namaste India,50.118603,8.647574,1173479,437,21,2194,C,4.5,"Jordanstr. 19, 60486 Frankfurt, Hesse Germany",Indian,Restaurants,,N/A,N/A,N/A,N/A,N/A,N/A,Available,Available,N/A,N/A,N/A,N/A,N/A,Available,Available,N/A,0,0,B
Toh-Thong Thai Cuisine,50.109467,8.66101,5270602,613,22,2194,C,4.5,"Duesseldorfer Str. 22, 60329 Frankfurt, Hesse Germany",Asian,Restaurants,$3 - $25,N/A,N/A,N/A,N/A,N/A,N/A,N/A,Available,Available,N/A,N/A,N/A,N/A,Available,N/A,N/A,$3 , $25,B
Kabuki Frankfurt,50.109047,8.67015,813389,524,23,2194,C,4.5,"Kaiserstr. 42, 60329 Frankfurt, Hesse Germany",Steakhouse,Restaurants,$35 - $165,N/A,N/A,Available,N/A,Available,N/A,N/A,Available,N/A,N/A,N/A,N/A,N/A,Available,Available,Available,$35 , $165,B
Romer Pils Brunnen,50.1134,8.683878,984159,821,24,2194,C,4.5,"Toengesgasse 19, 60311 Frankfurt, Hesse Germany",German,Restaurants,$1,Available,N/A,N/A,N/A,N/A,N/A,N/A,N/A,N/A,Available,Available,N/A,Available,N/A,N/A,N/A,$1,0,B
Restaurant Francais,50.110126,8.67585,718295,261,25,2194,C,4.5,"Bethmannstrasse 33 Am Kaiserplatz, 60311 Frankfurt, Hesse Germany",French,Restaurants,$69 - $205,N/A,N/A,N/A,N/A,N/A,N/A,N/A,N/A,N/A,N/A,Available,N/A,Available,N/A,Available,N/A,$69 , $205,B
Best Worscht in Town,50.121353,8.671299,1340149,443,26,2194,C,4.5,"Grueneburgweg 37, 60322 Frankfurt, Hesse Germany",German,Restaurants,$1 - $11,N/A,N/A,N/A,N/A,N/A,N/A,N/A,N/A,N/A,Available,N/A,N/A,N/A,N/A,N/A,N/A,$1 , $11,B
Fichtekraenzi,50.10468,8.689012,1355825,373,27,2194,C,4.5,"Wallstr. 5, 60594 Frankfurt, Hesse Germany",German,Restaurants,,N/A,N/A,N/A,N/A,N/A,N/A,N/A,N/A,N/A,Available,Available,N/A,Available,N/A,N/A,N/A,0,0,B
Kaffee Wackers,50.11205,8.679481,805095,272,28,2194,C,4.5,"Kornmarkt 9, 60311 Frankfurt, Hesse Germany",Cafe,Coffee & Tea,,N/A,N/A,N/A,N/A,N/A,Available,N/A,N/A,N/A,N/A,N/A,N/A,N/A,N/A,N/A,N/A,0,0,B
Der Fette Bulle,50.107723,8.666176,6405199,1140,29,2194,C,4.0,"Kaiserstr. 73, 60329 Frankfurt, Hesse Germany",American,Restaurants,$7 - $15,Available,N/A,N/A,Available,N/A,N/A,N/A,N/A,Available,N/A,N/A,N/A,N/A,Available,N/A,N/A,$7 , $15,C
Restaurant Sorriso,50.099514,8.680267,13231883,117,30,2194,C,5.0,"Oppenheimer Landstr. 49, 60596 Frankfurt, Hesse Germany",International,Restaurants,$70 - $100,N/A,N/A,N/A,N/A,N/A,N/A,N/A,N/A,N/A,N/A,N/A,N/A,N/A,N/A,Available,N/A,$70 , $100,A
Ramen Jun Frankfurt,50.113197,8.655895,8377101,340,31,2194,D,4.5,"Wilhelm-Hauff-Str. 10, 60325 Frankfurt, Hesse Germany",Japanese,Restaurants,$9 - $15,N/A,N/A,Available,N/A,N/A,N/A,N/A,Available,N/A,N/A,N/A,N/A,N/A,Available,N/A,N/A,$9 , $15,B
Lohninger,50.105343,8.677897,1866302,420,32,2194,D,4.5,"Schweizer Str. 1, 60594 Frankfurt, Hesse Germany",Austrian,Restaurants,,N/A,N/A,N/A,N/A,N/A,N/A,N/A,N/A,N/A,N/A,Available,N/A,N/A,N/A,N/A,N/A,0,0,B
Immer Satt,50.117313,8.645982,3253568,366,33,2194,D,4.0,"Robert-Mayer-Str. 41, 60486 Frankfurt, Hesse Germany",German,Restaurants,$4 - $15,N/A,N/A,N/A,N/A,N/A,N/A,N/A,N/A,N/A,Available,Available,N/A,Available,N/A,N/A,N/A,$4 , $15,C
Zum Baeren,50.098736,8.547668,1901124,268,34,2194,D,4.5,"Hoechster Schlossplatz 8, 65929 Frankfurt, Hesse Germany",German,Restaurants,$6 - $28,N/A,N/A,N/A,N/A,N/A,N/A,N/A,N/A,N/A,Available,Available,N/A,Available,Available,N/A,N/A,$6 , $28,B
Leon - Zum Goldenen Lowen,50.182602,8.695424,5506503,111,35,2194,D,4.5,"Reginastrasse 6 Eingang im Hof, 60437 Frankfurt, Hesse Germany",Greek,Restaurants,,N/A,N/A,N/A,N/A,N/A,N/A,N/A,N/A,N/A,N/A,N/A,Available,Available,N/A,N/A,N/A,0,0,B
Buffalo Steakhaus,50.115826,8.675317,1040374,647,36,2194,D,4.5,"Kaiserhofstr. 18-20, 60313 Frankfurt, Hesse Germany",Steakhouse,Restaurants,,N/A,N/A,N/A,N/A,Available,N/A,N/A,N/A,N/A,N/A,N/A,N/A,N/A,N/A,N/A,N/A,0,0,B
Zum Lahmen Esel,50.16938,8.62205,1341948,207,37,2194,D,4.5,"Krautgartenweg 1 60439 Frankfurt, 60439 Frankfurt, Hesse Germany",German,Restaurants,$8 - $25,N/A,N/A,N/A,N/A,N/A,N/A,N/A,N/A,N/A,Available,N/A,N/A,N/A,N/A,N/A,N/A,$8 , $25,B
Ristorante Sardegna,50.112892,8.686084,1382267,325,38,2194,D,4.5,"Fahrgasse 84, 60311 Frankfurt, Hesse Germany",Italian,Restaurants,$7 - $25,N/A,Available,N/A,N/A,N/A,N/A,N/A,N/A,N/A,N/A,N/A,Available,Available,Available,Available,N/A,$7 , $25,B
Goc Pho Vietnamese Street Food,50.113544,8.681619,10831790,259,39,2194,D,4.5,"Scharfengassschen 6 Frakfurt am Main, 60311 Frankfurt, Hesse Germany",Asian,Restaurants,$4 - $15,N/A,N/A,N/A,N/A,N/A,N/A,N/A,Available,N/A,N/A,N/A,N/A,N/A,Available,Available,N/A,$4 , $15,B
Gorenshi,50.107357,8.625503,13364571,112,40,2194,D,4.5,"Europa-Allee 157 Europaviertel West, near AXIS-Building and Westside Tower, 60486 Frankfurt, Hesse Germany",Japanese,Restaurants,$9 - $23,N/A,N/A,Available,N/A,N/A,N/A,N/A,Available,N/A,N/A,N/A,N/A,N/A,Available,Available,N/A,$9 , $23,B
Muku,50.10596,8.692248,2367831,312,41,2194,E,4.5,"Dreieichstr. 7, 60594 Frankfurt, Hesse Germany",Japanese,Restaurants,,N/A,N/A,Available,N/A,N/A,N/A,N/A,Available,N/A,N/A,N/A,N/A,N/A,N/A,N/A,N/A,0,0,B
Quattro,50.115406,8.686873,1790715,592,42,2194,E,4.0,"Gelbehirschstr. 12, 60313 Frankfurt, Hesse Germany",Italian,Restaurants,$15 - $500,N/A,Available,N/A,N/A,N/A,N/A,N/A,N/A,N/A,N/A,N/A,Available,Available,Available,N/A,N/A,$15 , $500,C
Stadtsalat,50.117706,8.663234,20205691,51,43,2194,E,5.0,"Bockenheimer Landstrasse 59, 60325 Frankfurt, Hesse Germany",German,Restaurants,$9 - $14,N/A,N/A,N/A,N/A,N/A,N/A,N/A,N/A,Available,Available,N/A,N/A,N/A,N/A,N/A,N/A,$9 , $14,A
Salzkammer,50.111565,8.678314,2061971,590,44,2194,E,4.0,"Weissadlergasse 15, 60311 Frankfurt, Hesse Germany",German,Restaurants,,N/A,N/A,N/A,N/A,N/A,N/A,N/A,N/A,N/A,Available,Available,N/A,Available,N/A,Available,N/A,0,0,C
Gioia,50.104866,8.68971,3915312,302,45,2194,E,4.0,"Paradiesgasse 67, 60594 Frankfurt, Hesse Germany",Italian,Restaurants,,N/A,Available,N/A,N/A,N/A,N/A,N/A,N/A,N/A,N/A,N/A,Available,Available,Available,Available,N/A,0,0,C
Lafleur,50.121525,8.656618,4795114,198,46,2194,E,4.5,"Palmengartenstr. 11, 60325 Frankfurt, Hesse Germany",European,Restaurants,,N/A,N/A,N/A,N/A,N/A,N/A,N/A,N/A,N/A,N/A,Available,N/A,Available,Available,Available,N/A,0,0,B
Zum Storch Am Dom,50.110096,8.684891,964719,322,47,2194,E,4.0,"Saalgasse 3-5, 60311 Frankfurt, Hesse Germany",German,Restaurants,,N/A,N/A,N/A,N/A,N/A,N/A,N/A,N/A,N/A,Available,Available,N/A,Available,N/A,N/A,N/A,0,0,C
Zu den 12 Aposteln,50.117348,8.686392,1341951,1047,48,2194,E,4.0,"Rosenbergerstrasse 1, 60313 Frankfurt, Hesse Germany",German,Restaurants,$4 - $21,N/A,N/A,N/A,N/A,N/A,N/A,N/A,N/A,N/A,Available,N/A,N/A,N/A,N/A,N/A,N/A,$4 , $21,C
Flavors Frankfurt Airport,50.05272,8.572332,1835021,298,49,2194,E,4.5,"Hugo-Eckener-Ring 15 Flughafen/Terminal 1, 60549 Frankfurt, Hesse Germany",European,Restaurants,$35 - $71,N/A,N/A,N/A,N/A,N/A,N/A,N/A,N/A,N/A,N/A,N/A,N/A,Available,Available,Available,N/A,$35 , $71,B
eatDOORI,50.108463,8.668906,8630793,730,50,2194,E,4.0,"Kaiserstr. 55, 60329 Frankfurt, Hesse Germany",Indian,Restaurants,$10 - $15,N/A,N/A,N/A,N/A,N/A,N/A,Available,Available,N/A,N/A,N/A,N/A,N/A,Available,Available,N/A,$10 , $15,C
