name,latitude,longitude,location_id,num_reviews,ranking_position,ranking_denominator,ranking_category,rating,address,cuisine,establishment_types,price,Bar,Italian,Japanese,American,Steakhouse,Cafe,Indian,Asian,Healthy,German,Central European,Mediterranean,European,Vegan Options,Gluten Free Options,Seafood,min price,max price,rating_category
SuRolls,53.551697,9.995514,21293847,103,1,3265,A,5.0,"Ballindamm 40 Europa Passage, Untergeschoss 1, 20095 Hamburg Germany",Asian,Restaurants,$3 - $13,N/A,N/A,Available,N/A,N/A,N/A,N/A,Available,Available,N/A,N/A,N/A,N/A,Available,Available,N/A,$3 , $13,A
Stadtsalat,53.55694,9.98913,21238514,80,2,3265,A,5.0,"Grosse Theaterstr. 31-35, 20354 Hamburg Germany",American,Restaurants,$11 - $16,N/A,N/A,N/A,Available,N/A,N/A,N/A,N/A,Available,N/A,N/A,N/A,N/A,N/A,Available,N/A,$11 , $16,A
The Table Kevin Fehling,53.542564,10.003078,8561371,224,3,3265,A,5.0,"Shanghaiallee 15, 20457 Hamburg Germany",European,Restaurants,$205 - $210,N/A,N/A,N/A,N/A,N/A,N/A,N/A,N/A,N/A,N/A,N/A,N/A,Available,N/A,Available,N/A,$205 , $210,A
Bianc,53.542965,9.994456,12843767,212,4,3265,A,5.0,"Am Sandtorkai 50, 20457 Hamburg Germany",Mediterranean,Restaurants,$85 - $160,N/A,N/A,N/A,N/A,N/A,N/A,N/A,N/A,N/A,N/A,Available,Available,Available,Available,Available,N/A,$85 , $160,A
Ola Lisboa,53.54604,9.975168,10322027,1008,5,3265,A,4.5,"Ditmar-Koel-Str. 18, 20459 Hamburg Germany",Seafood,Restaurants,,N/A,N/A,N/A,N/A,N/A,N/A,N/A,N/A,N/A,N/A,N/A,Available,Available,N/A,Available,Available,0,0,B
Erdapfel Hamburg,53.548714,10.002488,13832102,90,6,3265,A,5.0,"Burchardstr. 10, 20095 Hamburg Germany",Healthy,Restaurants,$6 - $8,N/A,N/A,N/A,N/A,N/A,N/A,N/A,N/A,Available,N/A,N/A,N/A,N/A,Available,Available,N/A,$6 , $8,A
Bootshaus Grill und Bar,53.541172,9.990624,13201843,222,7,3265,A,5.0,"Am Kaiserkai 19 Vasco Da Gama Platz, 20457 Hamburg Germany",Steakhouse,Restaurants,,N/A,N/A,N/A,N/A,Available,N/A,N/A,N/A,N/A,N/A,Available,N/A,Available,N/A,Available,N/A,0,0,A
Der Kiezbaecker,53.549145,9.959934,10125723,310,8,3265,A,5.0,"Silbersackstr. 8, 20359 Hamburg Germany",German,Coffee & Tea,,N/A,N/A,N/A,N/A,N/A,Available,N/A,N/A,N/A,Available,N/A,N/A,Available,Available,N/A,N/A,0,0,A
Restaurant Haerlin,53.555668,9.99189,718297,372,9,3265,A,5.0,"Neuer Jungfernstieg 9-14 Fairmont Hotel Vier Jahreszeiten, 20354 Hamburg Germany",French,Restaurants,$60 - $300,N/A,N/A,N/A,N/A,N/A,N/A,N/A,N/A,N/A,N/A,Available,N/A,Available,N/A,Available,N/A,$60 , $300,A
Philipps Restaurant,53.558025,9.970912,8028535,839,10,3265,A,5.0,"Turnerstrasse 9, 20357 Hamburg Germany",International,Restaurants,$14 - $35,N/A,N/A,N/A,N/A,N/A,N/A,N/A,N/A,N/A,Available,Available,N/A,Available,Available,Available,N/A,$14 , $35,A
MIt Herz & Zucker Cafe,53.56092,10.030106,11659200,125,11,3265,B,5.0,"Lubecker Str. 29, 22087 Hamburg Germany",Cafe,Coffee & Tea,$5 - $24,N/A,N/A,N/A,N/A,N/A,Available,N/A,N/A,N/A,N/A,N/A,N/A,N/A,Available,Available,N/A,$5 , $24,A
Hanoi Deli Rathaus,53.549335,9.992981,18980951,182,12,3265,B,5.0,"Schauenburgerstr. 49, 20095 Hamburg Germany",Sushi,Restaurants,,N/A,N/A,N/A,N/A,N/A,N/A,N/A,Available,N/A,N/A,N/A,N/A,N/A,Available,Available,N/A,0,0,A
Restaurant Hala,53.559696,9.887603,3929905,542,13,3265,B,4.5,"Beselerplatz 11, 22607 Hamburg Germany",Lebanese,Restaurants,,N/A,N/A,N/A,N/A,N/A,N/A,N/A,N/A,N/A,N/A,N/A,Available,N/A,Available,Available,N/A,0,0,B
Ristorante Buon Giorno,53.54931,9.983085,7133256,276,14,3265,B,4.5,"Michaelisstr. 18, 20459 Hamburg Germany",Italian,Restaurants,,N/A,Available,N/A,N/A,N/A,N/A,N/A,N/A,N/A,N/A,N/A,Available,Available,Available,N/A,N/A,0,0,B
Estancia Steaks,53.548466,9.995493,1381897,1214,15,3265,B,4.5,"Grosse Reichenstrasse 27, 20457 Hamburg Germany",Steakhouse,Restaurants,,N/A,N/A,N/A,N/A,Available,N/A,N/A,N/A,N/A,N/A,Available,N/A,Available,N/A,Available,N/A,0,0,B
Ristorante Il Buco,53.555378,10.012231,982893,328,16,3265,B,4.5,"Zimmerpforte 5 Walk from the Hauptbahnhof through Hansaplatz to Zimmerpforte, 20099 Hamburg Germany",Italian,Restaurants,,N/A,Available,N/A,N/A,N/A,N/A,N/A,N/A,Available,N/A,N/A,Available,Available,Available,Available,N/A,0,0,B
Helo Restaurant,53.55761,9.990124,4260468,446,17,3265,B,4.5,"Colonnaden 104, 20354 Hamburg Germany",Steakhouse,Restaurants,$5 - $38,N/A,N/A,N/A,N/A,Available,N/A,N/A,N/A,N/A,N/A,N/A,N/A,N/A,Available,Available,N/A,$5 , $38,B
Sagners Bistro Restaurant,53.56213,10.016936,1341267,240,18,3265,B,4.5,"Barcastr. 8, 22087 Hamburg Germany",German,Restaurants,$8 - $28,N/A,N/A,N/A,N/A,N/A,N/A,N/A,N/A,N/A,Available,Available,N/A,Available,N/A,Available,N/A,$8 , $28,B
Restaurant Ashoka,53.55329,9.965496,1039139,479,19,3265,B,4.5,"Budapester Str. 25, 20359 Hamburg Germany",Indian,Restaurants,,N/A,N/A,N/A,N/A,N/A,N/A,Available,N/A,N/A,N/A,N/A,N/A,N/A,Available,Available,N/A,0,0,B
Heldenplatz Restaurant,53.546757,9.996975,9730043,255,20,3265,B,4.5,"Brandstwiete 46, 20457 Hamburg Germany",International,Restaurants,$10 - $85,N/A,N/A,N/A,N/A,N/A,N/A,N/A,N/A,N/A,N/A,Available,N/A,Available,Available,Available,N/A,$10 , $85,B
FARDi SYRIAN RESTAURANT,53.574833,10.015074,7056642,357,21,3265,C,4.5,"Hofweg 72, 22085 Hamburg Germany",Mediterranean,Restaurants,,N/A,N/A,N/A,N/A,N/A,N/A,N/A,N/A,N/A,N/A,N/A,Available,N/A,Available,Available,N/A,0,0,B
[M]eatery Bar + Restaurant Hamburg,53.556683,9.986922,10748928,1112,22,3265,C,4.5,"Drehbahn 49, 20354 Hamburg Germany",Steakhouse,Restaurants,,N/A,N/A,N/A,N/A,Available,N/A,N/A,N/A,N/A,N/A,Available,N/A,Available,N/A,Available,N/A,0,0,B
Zeik,53.588963,10.001533,10156119,107,23,3265,C,5.0,"Sierichstr. 112, 22299 Hamburg Germany",European,Restaurants,$13 - $150,N/A,N/A,N/A,N/A,N/A,N/A,N/A,N/A,N/A,N/A,N/A,N/A,Available,N/A,Available,N/A,$13 , $150,A
Panthera Rodizio,53.546207,9.977114,10955680,1130,24,3265,C,4.0,"Ditmar Koel strasse 3, 20459 Hamburg Germany",Brazilian,Restaurants,,N/A,N/A,N/A,N/A,N/A,N/A,N/A,N/A,N/A,N/A,N/A,N/A,N/A,N/A,N/A,N/A,0,0,C
Bekaa Libanesisches Restaurant,53.565086,9.977756,2560955,443,25,3265,C,4.5,"Rentzelstr. 50, 20146 Hamburg Germany",Lebanese,Restaurants,,N/A,N/A,N/A,N/A,N/A,N/A,N/A,N/A,N/A,N/A,N/A,Available,N/A,Available,Available,N/A,0,0,B
Capriccio,53.55112,9.980325,2623149,216,26,3265,C,4.5,"Thielbek 12, 20355 Hamburg Germany",Italian,Restaurants,,N/A,Available,N/A,N/A,N/A,N/A,N/A,N/A,N/A,N/A,Available,Available,Available,Available,Available,N/A,0,0,B
Pizza Bande,53.548893,9.957529,7755288,550,27,3265,C,4.5,"Lincolnstr. 10, 20359 Hamburg Germany",Italian,Restaurants,$5 - $13,N/A,Available,N/A,N/A,N/A,N/A,N/A,N/A,N/A,N/A,N/A,Available,Available,Available,N/A,N/A,$5 , $13,B
Theo's,53.563225,9.989853,7817845,333,28,3265,C,4.5,"Rothenbaumchaussee 10, 20148 Hamburg Germany",American,Restaurants,,N/A,N/A,N/A,Available,Available,N/A,N/A,N/A,N/A,N/A,N/A,N/A,N/A,N/A,Available,N/A,0,0,B
NOM vietnamese fusion food,53.549088,9.974997,12732323,481,29,3265,C,4.5,"Zeughausmarkt 17, 20459 Hamburg Germany",Asian,Restaurants,$4 - $15,N/A,N/A,N/A,N/A,N/A,N/A,N/A,Available,N/A,N/A,N/A,N/A,N/A,Available,Available,N/A,$4 , $15,B
Caramba Especial,53.5447,9.976271,7171165,1133,30,3265,C,4.5,"Rambachstrasse 4, 20459 Hamburg Germany",Seafood,Restaurants,,N/A,N/A,N/A,N/A,N/A,N/A,N/A,N/A,Available,N/A,N/A,Available,Available,N/A,Available,Available,0,0,B
NIKKEI NINE,53.55561,9.991575,11847396,510,31,3265,D,4.5,"Neuer Jungfernstieg 9-14, 20354 Hamburg Germany",Japanese,Restaurants,$14 - $95,N/A,N/A,Available,N/A,N/A,N/A,N/A,Available,Available,N/A,N/A,N/A,N/A,Available,Available,N/A,$14 , $95,B
Das Dorf,53.557014,10.0105,1795498,732,32,3265,D,4.5,"Lange Reihe 39, 20099 Hamburg Germany",German,Restaurants,$8 - $23,Available,N/A,N/A,N/A,N/A,N/A,N/A,N/A,N/A,Available,Available,N/A,Available,Available,Available,N/A,$8 , $23,B
Restaurant Picasso,53.549984,9.995781,959195,897,33,3265,D,4.5,"Rathausstr. 14, 20095 Hamburg Germany",Seafood,Restaurants,,N/A,N/A,N/A,N/A,N/A,N/A,N/A,N/A,N/A,N/A,N/A,Available,Available,Available,Available,Available,0,0,B
Gassenhaur,53.54871,9.96354,12723004,442,34,3265,D,4.5,"Kastanienallee 32, 20359 Hamburg Germany",German,Restaurants,$10 - $40,N/A,N/A,N/A,N/A,N/A,N/A,N/A,N/A,N/A,Available,Available,N/A,N/A,Available,Available,N/A,$10 , $40,B
cantinetta ristorante & bar,53.54411,9.994268,7134860,447,35,3265,D,4.5,"Pickhuben 3, 20457 Hamburg Germany",Italian,Restaurants,$22 - $60,N/A,Available,N/A,N/A,N/A,N/A,N/A,N/A,N/A,N/A,Available,Available,Available,Available,Available,N/A,$22 , $60,B
Froindlichst,53.59249,10.002586,9453338,373,36,3265,D,4.5,"Barmbeker Str. 169 Winterhude, 22299 Hamburg Germany",Cafe,Restaurants,$5 - $14,N/A,N/A,N/A,N/A,N/A,Available,N/A,N/A,N/A,N/A,N/A,N/A,N/A,Available,Available,N/A,$5 , $14,B
Restaurant L'Orient,53.577263,9.948047,2020572,380,37,3265,D,4.5,"Osterstr. 146, 20255 Hamburg Germany",Lebanese,Restaurants,,N/A,N/A,N/A,N/A,N/A,N/A,N/A,N/A,N/A,N/A,N/A,Available,N/A,Available,Available,N/A,0,0,B
Fischereihafen-Restaurant,53.544395,9.935843,695667,1619,38,3265,D,4.5,"Grosse Elbstr. 143, 22767 Hamburg Germany",German,Restaurants,,N/A,N/A,N/A,N/A,N/A,N/A,N/A,N/A,N/A,Available,N/A,Available,Available,N/A,Available,Available,0,0,B
Speisewirtschaft Opitz,53.56491,10.018611,1039230,291,39,3265,D,4.5,"Mundsburger Damm 17, 22087 Hamburg Germany",German,Restaurants,$1,N/A,N/A,N/A,N/A,N/A,N/A,N/A,N/A,N/A,Available,Available,N/A,Available,N/A,N/A,N/A,$1,0,B
Delta Bistro,53.56232,9.971788,1344908,342,40,3265,D,4.5,"Lagerstr. 11, 20357 Hamburg Germany",Steakhouse,Restaurants,,N/A,N/A,N/A,N/A,Available,N/A,N/A,N/A,N/A,Available,Available,N/A,Available,N/A,N/A,N/A,0,0,B
Samui Thai Cuisine,53.57765,10.032957,3547654,300,41,3265,E,4.5,"Adolph-Schoenfelder-Str. 33-35, 22083 Hamburg Germany",Asian,Restaurants,,N/A,N/A,N/A,N/A,N/A,N/A,N/A,Available,N/A,N/A,N/A,N/A,N/A,Available,Available,N/A,0,0,B
Liman Fisch-Restaurant,53.580868,10.012281,4356004,800,42,3265,E,4.5,"Muehlenkamp 16, 22303 Hamburg Germany",Seafood,Restaurants,$19 - $49,N/A,N/A,N/A,N/A,N/A,N/A,N/A,N/A,Available,N/A,N/A,Available,Available,N/A,Available,Available,$19 , $49,B
Ti Breizh Haus der Bretagne,53.545467,9.987606,803207,652,43,3265,E,4.5,"Deichstrasse 39, 20459 Hamburg Germany",French,Restaurants,,N/A,N/A,N/A,N/A,N/A,N/A,N/A,N/A,N/A,N/A,N/A,N/A,Available,Available,Available,N/A,0,0,B
Nord Coast Coffee Roastery,53.5466,9.988176,8711472,423,44,3265,E,4.5,"Deichstrasse 9, 20459 Hamburg Germany",Cafe,Coffee & Tea,,N/A,N/A,N/A,N/A,N/A,Available,N/A,N/A,Available,N/A,N/A,N/A,Available,Available,Available,N/A,0,0,B
Thai & indisches Restaurant Curry Lounge,53.555984,10.017603,5121389,450,45,3265,E,4.5,"Steindamm 79 U1 Bahnhof Lohmühlen Straße, 20099 Hamburg Germany",Indian,Restaurants,$8 - $12,N/A,N/A,N/A,N/A,N/A,N/A,Available,N/A,N/A,N/A,N/A,N/A,N/A,Available,Available,N/A,$8 , $12,B
Quan Do,53.55345,10.002706,3589195,713,46,3265,E,4.5,"Georgsplatz 16, 20099 Hamburg Germany",Asian,Restaurants,,N/A,N/A,N/A,N/A,N/A,N/A,N/A,Available,Available,N/A,N/A,N/A,N/A,Available,Available,N/A,0,0,B
Singh Indian Restaurant,53.55451,10.013798,10337161,322,47,3265,E,4.5,"Steindamm 35 Gegenüber Kino Savoy, 20099 Hamburg Germany",Indian,Restaurants,$6 - $20,N/A,N/A,N/A,N/A,N/A,N/A,Available,N/A,N/A,N/A,N/A,N/A,N/A,Available,Available,N/A,$6 , $20,B
Bruecke 10,53.545403,9.963936,2194991,1297,48,3265,E,4.5,"St. Pauli Landungsbrucken, 20359 Hamburg Germany",German,Restaurants,,N/A,N/A,N/A,N/A,N/A,N/A,N/A,N/A,N/A,Available,N/A,N/A,N/A,N/A,N/A,Available,0,0,B
Hummer Pedersen,53.54445,9.943746,2267571,428,49,3265,E,4.5,"Grosse Elbstr. 152, 22767 Hamburg Germany",German,Restaurants,,N/A,N/A,N/A,N/A,N/A,N/A,N/A,N/A,N/A,Available,N/A,N/A,Available,N/A,Available,Available,0,0,B
Alt Helgolaender Fischerstube,53.545708,9.953043,1408152,680,50,3265,E,4.5,"Fischmarkt 4a-c 22767 Hamburg, 22767 Hamburg Germany",German,Restaurants,$12 - $30,N/A,N/A,N/A,N/A,N/A,N/A,N/A,N/A,Available,Available,N/A,N/A,Available,N/A,Available,Available,$12 , $30,B
