name,latitude,longitude,location_id,num_reviews,ranking_position,ranking_denominator,ranking_category,rating,address,cuisine,establishment_types,price,Bar,Italian,Japanese,American,Steakhouse,Cafe,Indian,Asian,Healthy,German,Central European,Mediterranean,European,Vegan Options,Gluten Free Options,Seafood,min price,max price,rating_category
ZIHNO Kitchen & Bar,51.33627,12.374522,20995951,101,1,661,A,5.0,"Martin-Luther-Ring 2 Zentrum, 04109, Leipzig, Saxony Germany",International,Restaurants,$8 - $40,N/A,N/A,N/A,N/A,N/A,N/A,N/A,N/A,N/A,N/A,N/A,Available,N/A,N/A,N/A,N/A,$8 , $40,A
Ratskeller,51.336666,12.373047,2084055,1432,2,661,A,4.5,"Lotterstr. 1 Center, new town hall, basement, 04109, Leipzig, Saxony Germany",German,Restaurants,$10 - $39,Available,N/A,N/A,N/A,N/A,N/A,N/A,N/A,Available,Available,N/A,N/A,N/A,Available,Available,N/A,$10 , $39,B
C'est la vie,51.33904,12.368619,8726148,288,3,661,A,4.5,"Zentralstrasse 7, 04109, Leipzig, Saxony Germany",French,Restaurants,$70 - $115,N/A,N/A,N/A,N/A,N/A,N/A,N/A,N/A,N/A,N/A,Available,N/A,Available,N/A,N/A,N/A,$70 , $115,B
Restaurant Alfa,51.337936,12.372094,12415780,101,4,661,A,5.0,"Ratsfreischulstr. 8-10 Zentrum, 04109, Leipzig, Saxony Germany",Mediterranean,Restaurants,,N/A,N/A,N/A,N/A,N/A,N/A,N/A,N/A,N/A,N/A,N/A,Available,N/A,Available,N/A,N/A,0,0,A
Drogerie,51.359104,12.362272,743221,295,5,661,A,4.5,"Schillerweg 36 Gohlis, 04155, Leipzig, Saxony Germany",French,Restaurants,$6 - $35,N/A,N/A,N/A,N/A,N/A,N/A,N/A,N/A,N/A,Available,Available,N/A,N/A,N/A,N/A,N/A,$6 , $35,B
Gaststaette Kollektiv,51.322105,12.373281,5601308,250,6,661,A,4.5,"Karl-Liebknecht-Str. 72 Südvorstadt, 04275, Leipzig, Saxony Germany",German,Restaurants,,N/A,N/A,N/A,N/A,N/A,N/A,N/A,N/A,N/A,Available,N/A,N/A,Available,N/A,N/A,N/A,0,0,B
Bayerischer Bahnhof,51.32952,12.3812,1041475,1079,7,661,A,4.0,"Bayrischer Platz 1 Zentrum Südost, 04103, Leipzig, Saxony Germany",German,Restaurants,$6 - $17,Available,N/A,N/A,N/A,N/A,N/A,N/A,N/A,N/A,Available,Available,N/A,Available,N/A,N/A,N/A,$6 , $17,C
Indian Crown,51.342125,12.376574,12445257,342,8,661,A,4.0,"Reichsstrasse 15 Zentrum, 04109, Leipzig, Saxony Germany",Indian,Restaurants,$4 - $19,N/A,N/A,N/A,N/A,N/A,N/A,Available,Available,N/A,N/A,N/A,N/A,N/A,Available,Available,N/A,$4 , $19,C
IMPERII Restaurant & Bar,51.342175,12.379426,8531397,201,9,661,A,4.5,"Bruhl 72 Zentrum, 04109, Leipzig, Saxony Germany",Bar,Restaurants,$6 - $29,Available,N/A,N/A,N/A,N/A,N/A,N/A,N/A,N/A,N/A,N/A,N/A,N/A,N/A,N/A,N/A,$6 , $29,B
Max Enk,51.33846,12.376985,2690746,267,10,661,A,4.5,"Neumarkt 9 Städtisches Kaufhaus, Zentrum, 04109, Leipzig, Saxony Germany",European,Restaurants,,N/A,N/A,N/A,N/A,N/A,N/A,N/A,N/A,N/A,N/A,Available,N/A,Available,Available,N/A,N/A,0,0,B
Ouzeri Was 'Kost' Das,51.32972,12.346389,7681845,314,11,661,B,4.5,"Nonnenstr. 5 d Plagwitz, 04229, Leipzig, Saxony Germany",Greek,Restaurants,$12 - $25,N/A,N/A,N/A,N/A,N/A,N/A,N/A,N/A,N/A,N/A,N/A,N/A,N/A,N/A,N/A,N/A,$12 , $25,B
HANS IM GLUECK Burgergrill & Bar,51.338497,12.379794,10454635,375,12,661,B,4.0,"Augustusplatz 14, 04109, Leipzig, Saxony Germany",American,Restaurants,$7 - $25,N/A,N/A,N/A,Available,N/A,N/A,N/A,N/A,N/A,N/A,N/A,N/A,N/A,Available,Available,N/A,$7 , $25,C
B10 Restaurant Wine & Gin Bar,51.331993,12.366614,7990891,163,13,661,B,4.5,"Beethovenstr. 10 Zentrum Süd, 04107, Leipzig, Saxony Germany",European,Restaurants,$7 - $25,N/A,N/A,N/A,N/A,N/A,N/A,N/A,N/A,N/A,N/A,N/A,N/A,Available,N/A,N/A,N/A,$7 , $25,B
Mephisto,51.339615,12.375479,2024587,166,14,661,B,4.5,"Grimmaische Str. 2-4 Mädler-Passage, Zentrum, 04109, Leipzig, Saxony Germany",Bar,Restaurants,,Available,N/A,N/A,N/A,N/A,N/A,N/A,N/A,N/A,Available,N/A,N/A,N/A,N/A,N/A,N/A,0,0,B
Apels Garten,51.33828,12.367965,743212,108,15,661,B,4.5,"Kolonnadenstr. 2, 04109, Leipzig, Saxony Germany",German,Restaurants,$7 - $19,N/A,N/A,N/A,N/A,N/A,N/A,N/A,N/A,N/A,Available,Available,N/A,Available,N/A,N/A,N/A,$7 , $19,B
Auerbachs Keller Leipzig,51.339455,12.375479,743213,1804,16,661,B,4.0,"Grimmaische Str. 2-4 Mädler-Passage, Zentrum, 04109, Leipzig, Saxony Germany",German,Restaurants,,Available,N/A,N/A,N/A,N/A,N/A,N/A,N/A,N/A,Available,Available,N/A,Available,Available,Available,N/A,0,0,C
Cafe Madrid,51.340153,12.372858,1340567,644,17,661,B,4.0,"Klostergasse 3-5 Thomaskirche, Zentrum, 04109, Leipzig, Saxony Germany",Mediterranean,Restaurants,$15 - $80,N/A,N/A,N/A,N/A,N/A,N/A,N/A,N/A,N/A,N/A,N/A,Available,Available,Available,Available,N/A,$15 , $80,C
Restaurant Weinstock,51.341057,12.374444,1345424,326,18,661,B,4.0,"Markt 7 Zentrum, 04109, Leipzig, Saxony Germany",German,Restaurants,,N/A,N/A,N/A,N/A,N/A,N/A,N/A,N/A,N/A,Available,Available,N/A,Available,N/A,N/A,N/A,0,0,C
Wagners Restaurant & Weinwirtschaft,51.34307,12.372138,4273764,134,19,661,B,4.5,"Richard-Wagner-Platz 1 Zentrum, 04109, Leipzig, Saxony Germany",German,Restaurants,,N/A,N/A,N/A,N/A,N/A,N/A,N/A,N/A,N/A,Available,Available,N/A,Available,Available,N/A,N/A,0,0,B
Pho Viet,51.342213,12.375094,6771056,347,20,661,B,4.0,"Katharinenstr. 15 Zentrum, 04109, Leipzig, Saxony Germany",Asian,Restaurants,,N/A,N/A,N/A,N/A,N/A,N/A,N/A,Available,N/A,N/A,N/A,N/A,N/A,Available,Available,N/A,0,0,C
Thuringer Hof,51.338303,12.373326,1320255,284,21,661,C,4.0,"Burgstr. 19 Zentrum, 04109, Leipzig, Saxony Germany",German,Restaurants,,N/A,N/A,N/A,N/A,N/A,N/A,N/A,N/A,N/A,Available,Available,N/A,Available,N/A,N/A,N/A,0,0,C
Bagel Brothers,51.342842,12.378468,1340753,270,22,661,C,4.0,"Nikolaistr. 42, 04109, Leipzig, Saxony Germany",American,Quick Bites,$3 - $10,N/A,N/A,N/A,Available,N/A,Available,N/A,N/A,N/A,Available,N/A,N/A,N/A,N/A,N/A,N/A,$3 , $10,C
Munsters,51.35842,12.360203,3747816,140,23,661,C,4.5,"Platnerstr. 11-13, 04155, Leipzig, Saxony Germany",German,Restaurants,,N/A,N/A,N/A,N/A,N/A,N/A,N/A,N/A,N/A,Available,Available,N/A,Available,N/A,N/A,N/A,0,0,B
An Nam,51.340893,12.367794,1913547,134,24,661,C,4.5,"Gottschedstr. 13 Zentrum, 04109, Leipzig, Saxony Germany",Asian,Restaurants,,N/A,N/A,N/A,N/A,N/A,N/A,N/A,Available,N/A,N/A,N/A,N/A,N/A,Available,N/A,N/A,0,0,B
Falco - Restaurant & Bar,51.346462,12.375787,1465485,280,25,661,C,4.5,"Gerberstrasse 15 Westin Hotel Marriott, 04105, Leipzig, Saxony Germany",Central European,Restaurants,$60 - $100,N/A,N/A,N/A,N/A,N/A,N/A,N/A,N/A,N/A,N/A,Available,N/A,N/A,N/A,N/A,N/A,$60 , $100,B
Wenzel Leipzig,51.341236,12.372597,3954562,193,26,661,C,4.0,"Kleine Fleischergasse 8, 04109, Leipzig, Saxony Germany",European,Restaurants,,N/A,N/A,N/A,N/A,N/A,N/A,N/A,N/A,N/A,N/A,Available,N/A,Available,Available,Available,N/A,0,0,C
Biorestaurant Macis,51.337543,12.371969,1499004,115,27,661,C,4.5,"Markgrafenstr. 10 Zentrum, 04109, Leipzig, Saxony Germany",European,Restaurants,,N/A,N/A,N/A,N/A,N/A,N/A,N/A,N/A,N/A,N/A,Available,N/A,Available,Available,N/A,N/A,0,0,B
Ha Noi Cuisine,51.342724,12.378301,10351208,156,28,661,C,4.0,"Bruhlstrasse 54, 04109, Leipzig, Saxony Germany",Asian,Restaurants,,N/A,N/A,N/A,N/A,N/A,N/A,N/A,Available,N/A,N/A,N/A,N/A,N/A,Available,N/A,N/A,0,0,C
Valentino Leipzig,51.343296,12.372815,4366427,157,29,661,C,4.0,"Bruhl 1 Höfe am Brühl, 04109, Leipzig, Saxony Germany",Italian,Restaurants,$5 - $29,N/A,Available,N/A,N/A,N/A,N/A,N/A,N/A,N/A,N/A,Available,Available,Available,Available,Available,N/A,$5 , $29,C
Killiwilly Irish Pub,51.32537,12.373634,1371204,120,30,661,C,4.5,"Karl-Liebknecht-Str. 44 Südvorstadt, 04107, Leipzig, Saxony Germany",Irish,Restaurants,$3 - $10,Available,N/A,N/A,N/A,N/A,N/A,N/A,N/A,N/A,N/A,N/A,N/A,Available,N/A,N/A,N/A,$3 , $10,B
Mein Leipzig,51.33675,12.358878,4844416,66,31,661,D,4.5,"Kaethe-Kollwitz-Str. 71, 04109, Leipzig, Saxony Germany",German,Restaurants,,N/A,N/A,N/A,N/A,N/A,N/A,N/A,N/A,N/A,Available,N/A,N/A,Available,N/A,N/A,N/A,0,0,B
Caffeeshop Leipzig Bar Italiano,51.33709,12.385887,5824861,79,32,661,D,4.5,"Johannisplatz 17, 04103, Leipzig, Saxony Germany",Italian,Restaurants,,Available,Available,N/A,N/A,N/A,Available,N/A,N/A,N/A,N/A,N/A,Available,N/A,N/A,N/A,N/A,0,0,B
Restaurant Johann S.,51.339024,12.372228,1345432,97,33,661,D,4.5,"Thomaskirchhof 17 Zentrum, 04109, Leipzig, Saxony Germany",Healthy,Restaurants,$5 - $25,Available,N/A,N/A,N/A,N/A,N/A,N/A,N/A,Available,Available,Available,N/A,Available,N/A,N/A,N/A,$5 , $25,B
Stadtpfeiffer,51.338306,12.380233,963472,97,34,661,D,4.5,"Augustusplatz 8, 04109, Leipzig, Saxony Germany",European,Restaurants,,N/A,N/A,N/A,N/A,N/A,N/A,N/A,N/A,N/A,N/A,Available,N/A,Available,N/A,Available,N/A,0,0,B
Zchaca,51.337597,12.371889,8844801,150,35,661,D,4.0,"Markgrafenstrasse 7 Zentrum, 04109, Leipzig, Saxony Germany",Seafood,Restaurants,$6 - $20,N/A,N/A,N/A,N/A,N/A,N/A,N/A,Available,N/A,N/A,N/A,N/A,N/A,Available,Available,Available,$6 , $20,C
Zest,51.307068,12.380161,1041430,112,36,661,D,4.5,"Bornaische Str. 54, 04277, Leipzig, Saxony Germany",Vegetarian Friendly,Restaurants,,N/A,N/A,N/A,N/A,N/A,N/A,N/A,N/A,N/A,N/A,N/A,N/A,N/A,Available,Available,N/A,0,0,B
Kildare City Pub,51.34079,12.373703,2657619,116,37,661,D,4.0,"Barfussgasschen 5-7 Zentrum, 04109, Leipzig, Saxony Germany",Irish,Restaurants,,Available,N/A,N/A,N/A,N/A,N/A,N/A,N/A,N/A,N/A,N/A,N/A,Available,N/A,N/A,N/A,0,0,C
Panorama Tower,51.337837,12.379081,1342466,390,38,661,D,4.0,"Augustusplatz 9, 04109, Leipzig, Saxony Germany",German,Restaurants,$7 - $29,N/A,N/A,N/A,N/A,N/A,N/A,N/A,N/A,N/A,Available,Available,N/A,Available,N/A,N/A,N/A,$7 , $29,C
Gosenschenke Ohne Bedenken,51.357727,12.367463,743227,148,39,661,D,4.0,"Menckestrasse 5, 04155, Leipzig, Saxony Germany",German,Restaurants,$6 - $15,N/A,N/A,N/A,N/A,N/A,N/A,N/A,N/A,N/A,Available,Available,N/A,Available,N/A,N/A,N/A,$6 , $15,C
Schaarschmidts Restaurant,51.366863,12.377268,963470,92,40,661,D,4.5,"Coppistrasse 32, 04157, Leipzig, Saxony Germany",German,Restaurants,$15 - $45,N/A,N/A,N/A,N/A,N/A,N/A,N/A,N/A,N/A,Available,Available,N/A,Available,N/A,N/A,N/A,$15 , $45,B
Gasstatte Weinberggarten,51.34463,12.31406,5819679,42,41,661,E,5.0,"Weinbergstr. 21 Anfahrt ü.Silcherstr. 2a, Leutzsch, 04179, Leipzig, Saxony Germany",German,Restaurants,,N/A,N/A,N/A,N/A,N/A,N/A,N/A,N/A,N/A,Available,N/A,N/A,N/A,N/A,N/A,N/A,0,0,A
Planerts,51.34164,12.379447,8508823,87,42,661,E,4.5,"Ritterstr. 23 Zentrum, 04109, Leipzig, Saxony Germany",Asian,Restaurants,$16 - $24,N/A,N/A,N/A,N/A,N/A,N/A,N/A,Available,N/A,N/A,N/A,N/A,N/A,Available,Available,N/A,$16 , $24,B
Viet Village,51.331924,12.367229,14931036,48,43,661,E,4.5,"Grassistrasse 12 Zentrum Süd, 04107, Leipzig, Saxony Germany",Asian,Restaurants,,N/A,N/A,N/A,N/A,N/A,N/A,N/A,Available,N/A,N/A,N/A,N/A,N/A,Available,N/A,N/A,0,0,B
L'Osteria Leipzig,51.33752,12.371594,7006685,316,44,661,E,4.0,"Martin-Luther-Ring 12 Zentrum, 04109, Leipzig, Saxony Germany",Italian,Restaurants,,N/A,Available,N/A,N/A,N/A,N/A,N/A,N/A,N/A,N/A,N/A,Available,N/A,Available,N/A,N/A,0,0,C
Rhodos,51.374416,12.385844,11949986,51,45,661,E,4.5,"Delitzscher Str. 158 Eutritzsch, 04129, Leipzig, Saxony Germany",Greek,Restaurants,,N/A,N/A,N/A,N/A,N/A,N/A,N/A,N/A,N/A,N/A,N/A,N/A,N/A,Available,N/A,N/A,0,0,B
Cafe Yellow Brasil,51.345833,12.371667,15027407,27,46,661,E,5.0,"Pfaffendorfer Str. 10 Apartment Central Hotel, 04105, Leipzig, Saxony Germany",Cafe,Coffee & Tea,,N/A,N/A,N/A,N/A,N/A,Available,N/A,N/A,N/A,Available,N/A,N/A,N/A,N/A,N/A,N/A,0,0,A
Zill's Tunnel,51.3409,12.373209,3174584,442,47,661,E,3.5,"Barfussgasschen 9 Zentrum, 04109, Leipzig, Saxony Germany",German,Restaurants,,N/A,N/A,N/A,N/A,N/A,N/A,N/A,N/A,N/A,Available,Available,N/A,Available,N/A,N/A,N/A,0,0,C
Kuemmel Apotheke,51.33915,12.375534,743229,152,48,661,E,4.0,"Grimmaische Str. 2 Mädler-Passage, 04109, Leipzig, Saxony Germany",German,Restaurants,$7 - $14,Available,N/A,N/A,N/A,N/A,N/A,N/A,N/A,N/A,Available,Available,N/A,Available,N/A,N/A,N/A,$7 , $14,C
Cafe Puschkin,51.32199,12.373351,1474100,132,49,661,E,4.0,"Karl-Liebknecht-Str. 74 Südvorstadt, 04275, Leipzig, Saxony Germany",Bar,Restaurants,,Available,N/A,N/A,N/A,N/A,N/A,N/A,N/A,N/A,N/A,N/A,N/A,Available,N/A,N/A,N/A,0,0,C
Rizzi,51.341187,12.375057,1345422,196,50,661,E,4.0,"Katharinenstr. 2, 04109, Leipzig, Saxony Germany",Italian,Restaurants,,N/A,Available,N/A,N/A,N/A,N/A,N/A,N/A,N/A,N/A,N/A,Available,Available,Available,N/A,N/A,0,0,C
